[{"lat":-6.2064052,"lon":107.0007987,"cityId":4000020,"localityId":5001299,"city_name":"Bekasi Utara"},{"lat":-6.3639378,"lon":107.1779936,"cityId":4000003,"localityId":5000776,"city_name":"Cikarang Pusat"},{"lat":-6.3774534,"lon":106.7765443,"cityId":4000024,"localityId":5001327,"city_name":"Limo"},{"lat":-6.6428214,"lon":106.8237374,"cityId":4000021,"localityId":5001308,"city_name":"Bogor Selatan - Kota"},{"lat":-6.6447995,"lon":106.6173415,"cityId":4000004,"localityId":5000816,"city_name":"Leuwiliang"},{"lat":-6.1490404,"lon":106.8030892,"cityId":4000028,"localityId":5000473,"city_name":"Tambora"},{"lat":-6.1325959,"lon":106.8384873,"cityId":4000032,"localityId":5000505,"city_name":"Pademangan"},{"lat":-6.1868347,"lon":106.8576636,"cityId":4000029,"localityId":5000476,"city_name":"Johar Baru"},{"lat":-6.2896105,"lon":106.8399623,"cityId":4000030,"localityId":5000488,"city_name":"Pasar Minggu"},{"lat":-6.2321915,"lon":106.9152021,"cityId":4000031,"localityId":5000495,"city_name":"Duren Sawit"},{"lat":-6.3478915,"lon":106.7411559,"cityId":4000080,"localityId":5000255,"city_name":"Pamulang"},{"lat":-6.25096,"lon":106.48475,"cityId":2000004,"localityId":4000076,"city_name":"Tangerang Kab."},{"lat":-6.308507,"lon":106.7565242,"cityId":4000080,"localityId":5000254,"city_name":"Ciputat Timur"},{"lat":-6.218566,"lon":106.3051766,"cityId":4000075,"localityId":5000169,"city_name":"Bandung"},{"lat":-6.299905,"lon":106.659945,"cityId":4000080,"localityId":5007151,"city_name":"Bumi Serpong Damai"},{"lat":-6.3109239,"lon":106.9299579,"cityId":4000020,"localityId":5001305,"city_name":"Pondok Melati"},{"lat":-6.1613335,"lon":107.1307289,"cityId":4000003,"localityId":5000789,"city_name":"Tambelang"},{"lat":-6.4279175,"lon":106.8001396,"cityId":4000024,"localityId":5001326,"city_name":"Cipayung"},{"lat":-6.5708377,"lon":106.8237374,"cityId":4000021,"localityId":5001311,"city_name":"Bogor Utara - Kota"},{"lat":-6.7462174,"lon":106.8119382,"cityId":4000004,"localityId":5000801,"city_name":"Cigombong"},{"lat":-6.9557571,"lon":107.6304105,"cityId":4000018,"localityId":5001266,"city_name":"Bandung Kidul"},{"lat":-6.8646647,"lon":107.5889804,"cityId":4000018,"localityId":5001288,"city_name":"Sukasari"},{"lat":-6.8975476,"lon":107.6718469,"cityId":4000018,"localityId":5001283,"city_name":"Mandalajati"},{"lat":-6.7998053,"lon":108.0124469,"cityId":4000016,"localityId":5001209,"city_name":"Paseh"},{"lat":-6.3056207,"lon":107.5386809,"cityId":4000499,"localityId":5001004,"city_name":"Banyusari"},{"lat":-6.2607713,"lon":107.6570475,"cityId":4000014,"localityId":5001120,"city_name":"Blanakan"},{"lat":-7.0776491,"lon":107.2075388,"cityId":4000006,"localityId":5000862,"city_name":"Campaka Mulya"},{"lat":-6.9735573,"lon":106.6645007,"cityId":4000015,"localityId":5001149,"city_name":"Bantargadung"}]