[{"lat":-6.2845276,"lon":106.8001396,"cityId":4000030,"localityId":5000482,"city_name":"Cilandak"},{"lat":-6.2321915,"lon":106.9152021,"cityId":4000031,"localityId":5000495,"city_name":"Duren Sawit"},{"lat":-6.2064052,"lon":107.0007987,"cityId":4000020,"localityId":5001299,"city_name":"Bekasi Utara"},{"lat":-6.258244,"lon":106.9771827,"cityId":4000020,"localityId":5001297,"city_name":"Bekasi Selatan"},{"lat":-6.2443916,"lon":106.7765443,"cityId":4000030,"localityId":5000485,"city_name":"Kebayoran Lama"},{"lat":-6.1604549,"lon":106.9054618,"cityId":4000032,"localityId":5000503,"city_name":"Kelapa Gading"},{"lat":-6.2318597,"lon":106.8473377,"cityId":4000030,"localityId":5000491,"city_name":"Tebet"},{"lat":-6.2896105,"lon":106.8399623,"cityId":4000030,"localityId":5000488,"city_name":"Pasar Minggu"},{"lat":-6.258454,"lon":106.6586052,"cityId":4000080,"localityId":5000258,"city_name":"Serpong Utara"},{"lat":-6.2611984,"lon":107.0421324,"cityId":4000003,"localityId":5000790,"city_name":"Tambun Selatan"},{"lat":-6.1894643,"lon":106.8945456,"cityId":4000031,"localityId":5000501,"city_name":"Pulo Gadung"},{"lat":-6.3101381,"lon":106.9535691,"cityId":4000020,"localityId":5001301,"city_name":"Jatiasih"},{"lat":-6.2778973,"lon":107.0007987,"cityId":4000020,"localityId":5001306,"city_name":"Rawalumbu"},{"lat":-6.1603721,"lon":106.8473377,"cityId":4000029,"localityId":5000477,"city_name":"Kemayoran"},{"lat":-6.183459,"lon":106.7647475,"cityId":4000028,"localityId":5000469,"city_name":"Kebon Jeruk"},{"lat":-6.5091428,"lon":106.7500025,"cityId":4000030,"localityId":5000814,"city_name":"Kemang"},{"lat":-6.1941316,"lon":106.9860384,"cityId":4000020,"localityId":5001302,"city_name":"Medan Satria"},{"lat":-6.3193373,"lon":107.1366365,"cityId":4000003,"localityId":5000777,"city_name":"Cikarang Selatan"}]